"id","lng","lat","name","road","road_id","url"
"0","-75.348917","39.8758","I-476 McDade on Ramp","Interstate 476","i476","http://www.dot35.state.pa.us/public/Districts/District6/WebCams/D6Cam122.jpg"
"1","-75.35165","39.8768","I-476 SB @ Mcdade Blvd/Exit 1","Interstate 476","i476","http://www.dot35.state.pa.us/public/Districts/District6/WebCams/D6Cam123.jpg"
"2","-75.547117","39.8812","US 202 SB @ US1","U.S. 202","us202","http://www.dot35.state.pa.us/public/Districts/District6/WebCams/D6Cam070.jpg"
"3","-75.352242","39.8832","I-476 NB N of Bullend Ln","Interstate 476","i476","http://www.dot35.state.pa.us/public/Districts/District6/WebCams/D6Cam196.jpg"
"4","-75.55535","39.8914","US 202 SB@Watkins","U.S. 202","us202","http://www.dot35.state.pa.us/public/Districts/District6/WebCams/D6Cam069.jpg"
"5","-75.224194","39.8922","WB Platt Bridge","Non-Highway","nonhighway","http://www.dot35.state.pa.us/public/Districts/District6/WebCams/D6Cam165.jpg"
"6","-75.211653","39.8978","WB Platt Bridge Midspan","Non-Highway","nonhighway","http://www.dot35.state.pa.us/public/Districts/District6/WebCams/D6Cam164.jpg"
"7","-75.364159","39.9029","I-476 SB@SEPTA Overpass","Interstate 476","i476","http://www.dot35.state.pa.us/public/Districts/District6/WebCams/D6Cam198.jpg"
"8","-75.194","39.9058","26th Street & Penrose Ave","Non-Highway","nonhighway","http://www.dot35.state.pa.us/public/Districts/District6/WebCams/D6Cam163.jpg"
"9","-75.362051","39.9081","I-476 NB S of Plush Mill Rd","Interstate 476","i476","http://www.dot35.state.pa.us/public/Districts/District6/WebCams/D6Cam199.jpg"
"10","-75.571033","39.9112","US 202 SB S of Green Tr Dr","U.S. 202","us202","http://www.dot35.state.pa.us/public/Districts/District6/WebCams/D6Cam068.jpg"
"11","-75.362417","39.9126","I-476 NB N of Beatty Rd","Interstate 476","i476","http://www.dot35.state.pa.us/public/Districts/District6/WebCams/D6Cam200.jpg"
"12","-75.362483","39.9126","I-476 SB @Balt Pike","Interstate 476","i476","http://www.dot35.state.pa.us/public/Districts/District6/WebCams/D6Cam124.jpg"
"13","-75.191853","39.9152","PA 291 WB E of I-76","Pennsylvania 291","pa291","http://www.dot35.state.pa.us/public/Districts/District6/WebCams/D6Cam162.jpg"
"14","-75.57695","39.9196","US 202 SB @ PA 926","U.S. 202","us202","http://www.dot35.state.pa.us/public/Districts/District6/WebCams/D6Cam067.jpg"
"15","-75.190575","39.9216","26th Street to 76 WB","Non-Highway","nonhighway","http://www.dot35.state.pa.us/public/Districts/District6/WebCams/D6Cam160.jpg"
"16","-75.190325","39.9216","I-76 EB to 26th Street","Interstate 76","i76","http://www.dot35.state.pa.us/public/Districts/District6/WebCams/D6Cam161.jpg"
"17","-75.191639","39.9231","I-76 EB Ramp to Passyunk Ave","Interstate 76","i76","http://www.dot35.state.pa.us/public/Districts/District6/WebCams/D6Cam159.jpg"
"18","-75.197211","39.9291","I-76 EB @ Vare Ave","Interstate 76","i76","http://www.dot35.state.pa.us/public/Districts/District6/WebCams/D6Cam158.jpg"
"19","-75.58555","39.9304","US 202 NB N of Skiles Blvd","U.S. 202","us202","http://www.dot35.state.pa.us/public/Districts/District6/WebCams/D6Cam066.jpg"
"20","-75.199906","39.9351","I-76 EB East of Grays Ferry","Interstate 76","i76","http://www.dot35.state.pa.us/public/Districts/District6/WebCams/D6Cam157.jpg"
"21","-75.364636","39.9361","I-476 SB @ US1","Interstate 476","i476","http://www.dot35.state.pa.us/public/Districts/District6/WebCams/D6Cam125.jpg"
"22","-75.59045","39.9406","US 202 NB@PA 322","U.S. 202","us202","http://www.dot35.state.pa.us/public/Districts/District6/WebCams/D6Cam065.jpg"
"23","-75.192581","39.9435","I-76 EB @ University Ave","Interstate 76","i76","http://www.dot35.state.pa.us/public/Districts/District6/WebCams/D6Cam156.jpg"
"24","-75.191364","39.9447","I-76 EB East of South Street","Interstate 76","i76","http://www.dot35.state.pa.us/public/Districts/District6/WebCams/D6Cam155.jpg"
"25","-75.34865","39.9452","I-476 SB N of PA320","Interstate 476","i476","http://www.dot35.state.pa.us/public/Districts/District6/WebCams/D6Cam197.jpg"
"26","-75.34865","39.9452","I-476 NB-North of US 1","Interstate 476","i476","http://www.dot35.state.pa.us/public/Districts/District6/WebCams/D6Cam011.jpg"
"27","-75.185261","39.9488","I-76 WB West of South Street","Interstate 76","i76","http://www.dot35.state.pa.us/public/Districts/District6/WebCams/D6Cam154.jpg"
"28","-75.581867","39.9505","US 202 NB N of Westtn R","U.S. 202","us202","http://www.dot35.state.pa.us/public/Districts/District6/WebCams/D6Cam063.jpg"
"29","-75.581867","39.9505","US 202 NB S of Bolmar S","U.S. 202","us202","http://www.dot35.state.pa.us/public/Districts/District6/WebCams/D6Cam064.jpg"
"30","-75.141083","39.953","I-95 NB 95@Vine Exp/BF Bridge","Interstate 95","i95","http://www.dot35.state.pa.us/public/Districts/District6/WebCams/D6Cam093.jpg"
"31","-75.181406","39.9538","I-76 WB @ 30th St","Interstate 76","i76","http://www.dot35.state.pa.us/public/Districts/District6/WebCams/D6Cam153.jpg"
"32","-75.33735","39.954","I-476 NB-Reed Rd","Interstate 476","i476","http://www.dot35.state.pa.us/public/Districts/District6/WebCams/D6Cam012.jpg"
"33","-75.180619","39.9557","I-76 WB East of I-676","Interstate 76","i76","http://www.dot35.state.pa.us/public/Districts/District6/WebCams/D6Cam152.jpg"
"34","-75.140833","39.9559","I-95 NB 95@Race St.","Interstate 95","i95","http://www.dot35.state.pa.us/public/Districts/District6/WebCams/D6Cam026.jpg"
"35","-75.152567","39.9569","I-676EB 676@8th St","Interstate 676","i676","http://www.dot35.state.pa.us/public/Districts/District6/WebCams/D6Cam177.jpg"
"36","-75.1449","39.957","I-676EB 676@3rd St","Interstate 676","i676","http://www.dot35.state.pa.us/public/Districts/District6/WebCams/D6Cam178.jpg"
"37","-75.157267","39.9573","I-676WB 676@11th St","Interstate 676","i676","http://www.dot35.state.pa.us/public/Districts/District6/WebCams/D6Cam132.jpg"
"38","-75.16175","39.9577","I-676WB 676@Broad St","Interstate 676","i676","http://www.dot35.state.pa.us/public/Districts/District6/WebCams/D6Cam131.jpg"
"39","-75.165367","39.9581","I-676EB 676@16th St","Interstate 676","i676","http://www.dot35.state.pa.us/public/Districts/District6/WebCams/D6Cam130.jpg"
"40","-75.140983","39.9585","I-95 NB Ramp to I-476 North","Interstate 95","i95","http://www.dot35.state.pa.us/public/Districts/District6/WebCams/D6Cam010.jpg"
"41","-75.140983","39.9585","I-95 SB @Vine/Callowhill","Interstate 95","i95","http://www.dot35.state.pa.us/public/Districts/District6/WebCams/D6Cam027.jpg"
"42","-75.168733","39.9588","I-676WB 676@18th St","Interstate 676","i676","http://www.dot35.state.pa.us/public/Districts/District6/WebCams/D6Cam129.jpg"
"43","-75.17245","39.959","I-676EB 676@Ben Franklin Pkwy","Interstate 676","i676","http://www.dot35.state.pa.us/public/Districts/District6/WebCams/D6Cam127.jpg"
"44","-75.171117","39.959","I-676WB 676@20th St","Interstate 676","i676","http://www.dot35.state.pa.us/public/Districts/District6/WebCams/D6Cam128.jpg"
"45","-75.178483","39.96","I-676WB 676@24th St","Interstate 676","i676","http://www.dot35.state.pa.us/public/Districts/District6/WebCams/D6Cam126.jpg"
"46","-75.181756","39.9604","I-76 EB @ I-676","Interstate 76","i76","http://www.dot35.state.pa.us/public/Districts/District6/WebCams/D6Cam151.jpg"
"47","-75.333617","39.9633","I-476 NB-Blue Rt","Interstate 476","i476","http://www.dot35.state.pa.us/public/Districts/District6/WebCams/D6Cam013.jpg"
"48","-75.184433","39.9641","I-76 WB Spring Garden","Interstate 76","i76","http://www.dot35.state.pa.us/public/Districts/District6/WebCams/D6Cam150.jpg"
"49","-75.5815","39.9672","US 202 NB @ W Chester P","U.S. 202","us202","http://www.dot35.state.pa.us/public/Districts/District6/WebCams/D6Cam062.jpg"
"50","-75.192289","39.9694","I-76 EB West of Spring Garden","Interstate 76","i76","http://www.dot35.state.pa.us/public/Districts/District6/WebCams/D6Cam149.jpg"
"51","-75.5835","39.9728","US 202 NB N or Paoli","U.S. 202","us202","http://www.dot35.state.pa.us/public/Districts/District6/WebCams/D6Cam061.jpg"
"52","-75.339683","39.9731","I-476 NB- Lawrence Rd","Interstate 476","i476","http://www.dot35.state.pa.us/public/Districts/District6/WebCams/D6Cam014.jpg"
"53","-75.194119","39.9744","I-76 WB East of Girard","Interstate 76","i76","http://www.dot35.state.pa.us/public/Districts/District6/WebCams/D6Cam148.jpg"
"54","-75.197075","39.9766","I-76 EB @ Girard","Interstate 76","i76","http://www.dot35.state.pa.us/public/Districts/District6/WebCams/D6Cam147.jpg"
"55","-75.34091","39.9779","I-476 SB S of West Chester Pike","Interstate 476","i476","http://www.dot35.state.pa.us/public/Districts/District6/WebCams/D6Cam201.jpg"
"56","-75.202353","39.9782","I-76 EB West of Girard","Interstate 76","i76","http://www.dot35.state.pa.us/public/Districts/District6/WebCams/D6Cam146.jpg"
"57","-75.105267","39.9801","I-95 NB-95 Indiana St","Interstate 95","i95","http://www.dot.state.pa.us/penndot/districts/district6.nsf/TCamera102?openpage"
"58","-75.588867","39.9811","US 202 SB @ PA 322","U.S. 202","us202","http://www.dot35.state.pa.us/public/Districts/District6/WebCams/D6Cam060.jpg"
"59","-75.208172","39.9833","I-76 EB East of Montgomery","Interstate 76","i76","http://www.dot35.state.pa.us/public/Districts/District6/WebCams/D6Cam145.jpg"
"60","-75.338263","39.984","I-476 NB N of West Chester Pike","Interstate 476","i476","http://www.dot35.state.pa.us/public/Districts/District6/WebCams/D6Cam202.jpg"
"61","-75.207675","39.9875","I-76 EB @ Montgomery","Interstate 76","i76","http://www.dot35.state.pa.us/public/Districts/District6/WebCams/D6Cam144.jpg"
"62","-75.343301","39.9883","I-476 SB S of Marple Rd","Interstate 476","i476","http://www.dot35.state.pa.us/public/Districts/District6/WebCams/D6Cam203.jpg"
"63","-75.0881","39.9885","I-95 NB-95 Castor Ave","Interstate 95","i95","http://www.dot35.state.pa.us/public/Districts/District6/WebCams/D6Cam103.jpg"
"64","-75.589033","39.9919","US 202 SB @ PA 100","U.S. 202","us202","http://www.dot35.state.pa.us/public/Districts/District6/WebCams/D6Cam059.jpg"
"65","-75.197778","39.9952","I-76 WB West of Montgomery Dr","Interstate 76","i76","http://www.dot35.state.pa.us/public/Districts/District6/WebCams/D6Cam143.jpg"
"66","-75.34778","39.9958","I-476 NB S of Darby Rd","Interstate 476","i476","http://www.dot35.state.pa.us/public/Districts/District6/WebCams/D6Cam204.jpg"
"67","-75.593917","39.9961","PA 100 NB @ Phoenixville","Pennsylvania 100","pa100","http://www.dot35.state.pa.us/public/Districts/District6/WebCams/D6Cam028.jpg"
"68","-75.082267","39.9973","I-95 SB-95 Betsy Ross","Interstate 95","i95","http://www.dot35.state.pa.us/public/Districts/District6/WebCams/D6Cam104.jpg"
"69","-75.22623","40.0013","RT23 WB @ City Line Ave","Pennsylvania 23","pa23","http://www.dot35.state.pa.us/public/Districts/District6/WebCams/D6Cam212.jpg"
"70","-75.5995","40.0029","PA 100 NB BEF Kirkland","Pennsylvania 100","pa100","http://www.dot35.state.pa.us/public/Districts/District6/WebCams/D6Cam029.jpg"
"71","-75.195331","40.0051","I-76 EB Ramp to US1 N","Interstate 76","i76","http://www.dot35.state.pa.us/public/Districts/District6/WebCams/D6Cam142.jpg"
"72","-75.5824","40.0053","US 202 NB @ Boot Rd","U.S. 202","us202","http://www.dot35.state.pa.us/public/Districts/District6/WebCams/D6Cam058.jpg"
"73","-75.197528","40.006","I-76 EB @ US1","Interstate 76","i76","http://www.dot35.state.pa.us/public/Districts/District6/WebCams/D6Cam141.jpg"
"74","-75.354554","40.0066","I-476 SB S of Bryn Mawr Ave","Interstate 476","i476","http://www.dot35.state.pa.us/public/Districts/District6/WebCams/D6Cam205.jpg"
"75","-75.072633","40.0076","I-95 SB-95 Wakelng St","Interstate 95","i95","http://www.dot35.state.pa.us/public/Districts/District6/WebCams/D6Cam105.jpg"
"76","-75.612833","40.0077","PA 100 SB AFT BOOT RD","Pennsylvania 100","pa100","http://www.dot35.state.pa.us/public/Districts/District6/WebCams/D6Cam030.jpg"
"77","-75.072407","40.0081","Aramingo Ave @ Tacony St","Non-Highway","nonhighway","http://www.dot35.state.pa.us/public/Districts/District6/WebCams/D6Cam223.jpg"
"78","-75.207789","40.0098","I-76 EB @ City Ave","Interstate 76","i76","http://www.dot35.state.pa.us/public/Districts/District6/WebCams/D6Cam140.jpg"
"79","-75.735667","40.0098","US 30 EB after PA 340","U.S. 30","us30","http://www.dot35.state.pa.us/public/Districts/District6/WebCams/D6Cam081.jpg"
"80","-75.581167","40.0114","US 202 NB @ Morstein Rd","U.S. 202","us202","http://www.dot35.state.pa.us/public/Districts/District6/WebCams/D6Cam057.jpg"
"81","-75.209206","40.0115","I-76 WB @ City Ave","Interstate 76","i76","http://www.dot35.state.pa.us/public/Districts/District6/WebCams/D6Cam139.jpg"
"82","-75.182425","40.0116","US 1 NB South of Henry","U.S. 1","us1","http://www.dot35.state.pa.us/public/Districts/District6/WebCams/D6Cam166.jpg"
"83","-75.058783","40.0125","I-95 NB-95 Vankirk","Interstate 95","i95","http://www.dot35.state.pa.us/public/Districts/District6/WebCams/D6Cam106.jpg"
"84","-75.616433","40.0126","PA 100 SB AFT Pottstown","Pennsylvania 100","pa100","http://www.dot35.state.pa.us/public/Districts/District6/WebCams/D6Cam031.jpg"
"85","-75.647933","40.013","US 30 EB before PA 100","U.S. 30","us30","http://www.dot35.state.pa.us/public/Districts/District6/WebCams/D6Cam076.jpg"
"86","-75.068462","40.0134","Torresdale @ Harbison Ave","Non-Highway","nonhighway","http://www.dot35.state.pa.us/public/Districts/District6/WebCams/D6Cam213.jpg"
"87","-75.724383","40.0135","US 30 WB @ PA 322","U.S. 30","us30","http://www.dot35.state.pa.us/public/Districts/District6/WebCams/D6Cam080.jpg"
"88","-75.178275","40.0145","US 1 SB @ Fox Street","U.S. 1","us1","http://www.dot35.state.pa.us/public/Districts/District6/WebCams/D6Cam167.jpg"
"89","-75.357316","40.0156","I-476 SB@Clyde Rd","Interstate 476","i476","http://www.dot35.state.pa.us/public/Districts/District6/WebCams/D6Cam206.jpg"
"90","-75.072407","40.0169","Harbison Ave @ Sanger St","Non-Highway","nonhighway","http://www.dot35.state.pa.us/public/Districts/District6/WebCams/D6Cam224.jpg"
"91","-75.621333","40.0172","PA 100 NB BEF MTN View","Pennsylvania 100","pa100","http://www.dot35.state.pa.us/public/Districts/District6/WebCams/D6Cam032.jpg"
"92","-75.172356","40.0176","US 1 SB @ Wissahickon","U.S. 1","us1","http://www.dot35.state.pa.us/public/Districts/District6/WebCams/D6Cam168.jpg"
"93","-75.669533","40.0182","US 30 WB@BUS 230 Ramp","U.S. 30","us30","http://www.dot35.state.pa.us/public/Districts/District6/WebCams/D6Cam077.jpg"
"94","-75.168597","40.0183","US 1 NB @ Roberts/Berkley","U.S. 1","us1","http://www.dot35.state.pa.us/public/Districts/District6/WebCams/D6Cam169.jpg"
"95","-75.699783","40.0193","US 30 WB before PA 113","U.S. 30","us30","http://www.dot35.state.pa.us/public/Districts/District6/WebCams/D6Cam078.jpg"
"96","-75.699783","40.0193","US 30 WB before PA 282","U.S. 30","us30","http://www.dot35.state.pa.us/public/Districts/District6/WebCams/D6Cam079.jpg"
"97","-75.148892","40.0198","US 1 SB @ Broad Street","U.S. 1","us1","http://www.dot35.state.pa.us/public/Districts/District6/WebCams/D6Cam171.jpg"
"98","-75.219014","40.02","I-76 WB East of Belmont","Interstate 76","i76","http://www.dot35.state.pa.us/public/Districts/District6/WebCams/D6Cam138.jpg"
"99","-75.153739","40.0204","US 1 NB @ 17th Street","U.S. 1","us1","http://www.dot35.state.pa.us/public/Districts/District6/WebCams/D6Cam170.jpg"
"100","-75.053572","40.0205","Torresdale @ Robbins Ave","Non-Highway","nonhighway","http://www.dot35.state.pa.us/public/Districts/District6/WebCams/D6Cam214.jpg"
"101","-75.624317","40.0205","US 30 EB @ PA 100","U.S. 30","us30","http://www.dot35.state.pa.us/public/Districts/District6/WebCams/D6Cam075.jpg"
"102","-75.140194","40.021","US 1 @ 9th Street","U.S. 1","us1","http://www.dot35.state.pa.us/public/Districts/District6/WebCams/D6Cam172.jpg"
"103","-75.051623","40.0215","Torresdale @ Levick St","Non-Highway","nonhighway","http://www.dot35.state.pa.us/public/Districts/District6/WebCams/D6Cam215.jpg"
"104","-75.58765","40.0218","US 202 SB S of King Rd","U.S. 202","us202","http://www.dot35.state.pa.us/public/Districts/District6/WebCams/D6Cam056.jpg"
"105","-75.03885","40.0222","I-95 SB-95 Disston St","Interstate 95","i95","http://www.dot35.state.pa.us/public/Districts/District6/WebCams/D6Cam107.jpg"
"106","-75.035265","40.0239","State Rd @ Princeton Ave","Non-Highway","nonhighway","http://www.dot35.state.pa.us/public/Districts/District6/WebCams/D6Cam221.jpg"
"107","-75.229056","40.0253","I-76 EB @ Belmont","Interstate 76","i76","http://www.dot35.state.pa.us/public/Districts/District6/WebCams/D6Cam137.jpg"
"108","-75.031494","40.0257","State Rd @ Cottman Ave","Non-Highway","nonhighway","http://www.dot35.state.pa.us/public/Districts/District6/WebCams/D6Cam222.jpg"
"109","-75.627767","40.028","PA 100 NB @ SR3070","Pennsylvania 100","pa100","http://www.dot35.state.pa.us/public/Districts/District6/WebCams/D6Cam033.jpg"
"110","-75.038766","40.0282","Torresdale @ Princeton Ave","Non-Highway","nonhighway","http://www.dot35.state.pa.us/public/Districts/District6/WebCams/D6Cam216.jpg"
"111","-75.363717","40.0288","I-476 SB @ Conestoge Rd","Interstate 476","i476","http://www.dot35.state.pa.us/public/Districts/District6/WebCams/D6Cam207.jpg"
"112","-75.021933","40.0294","I-95 NB-95 N of COTMN","Interstate 95","i95","http://www.dot35.state.pa.us/public/Districts/District6/WebCams/D6Cam108.jpg"
"113","-75.587867","40.0299","US 202 SB @ US 30","U.S. 202","us202","http://www.dot35.state.pa.us/public/Districts/District6/WebCams/D6Cam055.jpg"
"114","-75.034993","40.0301","Torresdale @ Cottman Ave","Non-Highway","nonhighway","http://www.dot35.state.pa.us/public/Districts/District6/WebCams/D6Cam217.jpg"
"115","-75.26319","40.031","RT23 WB @ Hollow Rd","Pennsylvania 23","pa23","http://www.dot35.state.pa.us/public/Districts/District6/WebCams/D6Cam211.jpg"
"116","-75.239061","40.0317","I-76 WB West of Belmont","Interstate 76","i76","http://www.dot35.state.pa.us/public/Districts/District6/WebCams/D6Cam136.jpg"
"117","-75.025058","40.0352","Torresdale @ Rhawn St","Non-Highway","nonhighway","http://www.dot35.state.pa.us/public/Districts/District6/WebCams/D6Cam218.jpg"
"118","-75.018433","40.0353","I-95 SB-95 Penny Pack","Interstate 95","i95","http://www.dot35.state.pa.us/public/Districts/District6/WebCams/D6Cam109.jpg"
"119","-75.359317","40.036","I-476 SB-US 30 RMP","Interstate 476","i476","http://www.dot35.state.pa.us/public/Districts/District6/WebCams/D6Cam015.jpg"
"120","-75.2462","40.0369","I-76 WB East of Gladwyne","Interstate 76","i76","http://www.dot35.state.pa.us/public/Districts/District6/WebCams/D6Cam135.jpg"
"121","-75.247489","40.0375","I-76 WB West of Gladwyne","Interstate 76","i76","http://www.dot35.state.pa.us/public/Districts/District6/WebCams/D6Cam134.jpg"
"122","-75.632","40.0385","PA 100 NB @Sunrise BLVD","Pennsylvania 100","pa100","http://www.dot35.state.pa.us/public/Districts/District6/WebCams/D6Cam034.jpg"
"123","-75.353183","40.0387","I-476-US 30/Exit #13","Interstate 476","i476","http://www.dot.state.pa.us/penndot/districts/district6.nsf/TCamera119?openpage"
"124","-75.01526","40.0403","Torresdale @ Ashburner St","Non-Highway","nonhighway","http://www.dot35.state.pa.us/public/Districts/District6/WebCams/D6Cam219.jpg"
"125","-75.004517","40.041","I-95 NB-95 S of Amtrak","Interstate 95","i95","http://www.dot35.state.pa.us/public/Districts/District6/WebCams/D6Cam110.jpg"
"126","-75.570317","40.0434","US 202 NB S of PA 401","U.S. 202","us202","http://www.dot35.state.pa.us/public/Districts/District6/WebCams/D6Cam054.jpg"
"127","-75.25725","40.0448","I-76 EB West of Gladwyne","Interstate 76","i76","http://www.dot35.state.pa.us/public/Districts/District6/WebCams/D6Cam133.jpg"
"128","-75.3493","40.0458","I-476 SB CNTY Ln","Interstate 476","i476","http://www.dot35.state.pa.us/public/Districts/District6/WebCams/D6Cam017.jpg"
"129","-75.633467","40.0465","PA 100 NB BEF SHIP RD","Pennsylvania 100","pa100","http://www.dot35.state.pa.us/public/Districts/District6/WebCams/D6Cam035.jpg"
"130","-74.9998","40.0482","I-95 SB-95 Academy Rd","Interstate 95","i95","http://www.dot35.state.pa.us/public/Districts/District6/WebCams/D6Cam111.jpg"
"131","-74.999716","40.0504","Torresdale @ Linden St","Non-Highway","nonhighway","http://www.dot35.state.pa.us/public/Districts/District6/WebCams/D6Cam220.jpg"
"132","-75.546683","40.0508","US 202 NB N of Mill Lane","U.S. 202","us202","http://www.dot35.state.pa.us/public/Districts/District6/WebCams/D6Cam052.jpg"
"133","-74.98915","40.0511","I-95 NB-95 Convent Av","Interstate 95","i95","http://www.dot35.state.pa.us/public/Districts/District6/WebCams/D6Cam112.jpg"
"134","-75.533033","40.0515","US 202 SB @ PA 29","U.S. 202","us202","http://www.dot35.state.pa.us/public/Districts/District6/WebCams/D6Cam051.jpg"
"135","-75.3445","40.0517","I-476 SB No of Cnty LN","Interstate 476","i476","http://www.dot35.state.pa.us/public/Districts/District6/WebCams/D6Cam018.jpg"
"136","-75.5616","40.0518","US 202 SB @ Church Rd","U.S. 202","us202","http://www.dot35.state.pa.us/public/Districts/District6/WebCams/D6Cam053.jpg"
"137","-75.265803","40.053","I-76 EB East of Waverly","Interstate 76","i76","http://www.dot35.state.pa.us/public/Districts/District6/WebCams/D6Cam176.jpg"
"138","-75.641317","40.055","PA 100 NB @Worthington","Pennsylvania 100","pa100","http://www.dot35.state.pa.us/public/Districts/District6/WebCams/D6Cam036.jpg"
"139","-75.500383","40.0561","US 202 SB N of Cedar Hollow Rd","U.S. 202","us202","http://www.dot35.state.pa.us/public/Districts/District6/WebCams/D6Cam050.jpg"
"140","-75.65695","40.0565","PA 100 SB AFT PA 113","Pennsylvania 100","pa100","http://www.dot35.state.pa.us/public/Districts/District6/WebCams/D6Cam037.jpg"
"141","-75.330983","40.0574","I-476 NB Blue Rt","Interstate 476","i476","http://www.dot35.state.pa.us/public/Districts/District6/WebCams/D6Cam019.jpg"
"142","-75.48595","40.0579","US 202 NB N of N Valley","U.S. 202","us202","http://www.dot35.state.pa.us/public/Districts/District6/WebCams/D6Cam049.jpg"
"143","-74.981717","40.0586","I-95 SB-95 Mil Rd","Interstate 95","i95","http://www.dot35.state.pa.us/public/Districts/District6/WebCams/D6Cam113.jpg"
"144","-75.321417","40.0638","I-476 NB @ I-76/Exit 16B","Interstate 476","i476","http://www.dot35.state.pa.us/public/Districts/District6/WebCams/D6Cam020.jpg"
"145","-74.9697","40.0642","I-95- 895 Tennis Ave","Interstate 95","i95","http://www.dot.state.pa.us/penndot/districts/district6.nsf/TCamera119?openpage"
"146","-75.329483","40.0642","I-76 EB W of Matsnfrd","Interstate 76","i76","http://www.dot35.state.pa.us/public/Districts/District6/WebCams/D6Cam098.jpg"
"147","-75.472617","40.0643","US 202 SB @ Howelvl Rd","U.S. 202","us202","http://www.dot35.state.pa.us/public/Districts/District6/WebCams/D6Cam048.jpg"
"148","-75.276847","40.0644","I-76 EB West of Waverly","Interstate 76","i76","http://www.dot35.state.pa.us/public/Districts/District6/WebCams/D6Cam175.jpg"
"149","-75.318264","40.0655","I-76 WB @ I476 Interchange","Interstate 76","i76","http://www.dot35.state.pa.us/public/Districts/District6/WebCams/D6Cam173.jpg"
"150","-75.460167","40.0655","US 202 NB N of Chesterbrk","U.S. 202","us202","http://www.dot35.state.pa.us/public/Districts/District6/WebCams/D6Cam047.jpg"
"151","-75.312483","40.0666","I-76 WB @ MM 332","Interstate 76","i76","http://www.dot35.state.pa.us/public/Districts/District6/WebCams/D6Cam099.jpg"
"152","-75.337383","40.0676","I-76 WB @ MM","Interstate 76","i76","http://www.dot35.state.pa.us/public/Districts/District6/WebCams/D6Cam097.jpg"
"153","-75.451967","40.0678","US 202 N of US 252","U.S. 202","us202","http://www.dot35.state.pa.us/public/Districts/District6/WebCams/D6Cam046.jpg"
"154","-74.9612","40.068","I-95 NB-Ramp to PA 63","Interstate 95","i95","http://www.dot35.state.pa.us/public/Districts/District6/WebCams/D6Cam115.jpg"
"155","-75.300717","40.068","I-76 EB@MM 332.6","Interstate 76","i76","http://www.dot35.state.pa.us/public/Districts/District6/WebCams/D6Cam100.jpg"
"156","-75.31126","40.069","RT23 EB @ Fayette St","Pennsylvania 23","pa23","http://www.dot35.state.pa.us/public/Districts/District6/WebCams/D6Cam210.jpg"
"157","-75.343033","40.0695","I-76 EB @ Gulph Mills","Interstate 76","i76","http://www.dot35.state.pa.us/public/Districts/District6/WebCams/D6Cam096.jpg"
"158","-74.961083","40.0706","I-95 SB- 95 Woodhaven","Interstate 95","i95","http://www.dot35.state.pa.us/public/Districts/District6/WebCams/D6Cam116.jpg"
"159","-75.68015","40.0712","PA 100 NB @PA Turnpike","Pennsylvania 100","pa100","http://www.dot35.state.pa.us/public/Districts/District6/WebCams/D6Cam039.jpg"
"160","-75.441367","40.0718","US 202 SB @ US 252","U.S. 202","us202","http://www.dot35.state.pa.us/public/Districts/District6/WebCams/D6Cam045.jpg"
"161","-75.28695","40.072","I-76 WB @ Conshohocken Curve","Interstate 76","i76","http://www.dot35.state.pa.us/public/Districts/District6/WebCams/D6Cam174.jpg"
"162","-75.28695","40.072","I-76 WB Consh Crve","Interstate 76","i76","http://www.dot35.state.pa.us/public/Districts/District6/WebCams/D6Cam101.jpg"
"163","-75.427417","40.0732","US 202 NB @ W Valley Rd","U.S. 202","us202","http://www.dot35.state.pa.us/public/Districts/District6/WebCams/D6Cam044.jpg"
"164","-75.3478","40.0736","I-76 WB W of Gypsy Rd","Interstate 76","i76","http://www.dot35.state.pa.us/public/Districts/District6/WebCams/D6Cam095.jpg"
"165","-74.948833","40.0741","I-95 NB /WWB Packer","Interstate 95","i95","http://www.dot.state.pa.us/penndot/districts/district6.nsf/TCamera119?openpage"
"166","-74.948833","40.0741","I-95 NB-95 Station Av","Interstate 95","i95","http://www.dot35.state.pa.us/public/Districts/District6/WebCams/D6Cam117.jpg"
"167","-74.948833","40.0741","I-95 SB Island Airport","Interstate 95","i95","http://www.dot35.state.pa.us/public/Districts/District6/WebCams/D6Cam001.jpg"
"168","-74.948833","40.0741","I-95 SB-Aramingo/Gir","Interstate 95","i95","http://www.dot35.state.pa.us/public/Districts/District6/WebCams/D6Cam009.jpg"
"169","-74.948833","40.0741","I-95 SB-Broad St.","Interstate 95","i95","http://www.dot35.state.pa.us/public/Districts/District6/WebCams/D6Cam003.jpg"
"170","-74.948833","40.0741","I-95 SB-EnterPR/Bart","Interstate 95","i95","http://www.dot35.state.pa.us/public/Districts/District6/WebCams/D6Cam002.jpg"
"171","-74.948833","40.0741","I-95 SB-Girard Ave","Interstate 95","i95","http://www.dot35.state.pa.us/public/Districts/District6/WebCams/D6Cam008.jpg"
"172","-74.948833","40.0741","I-95 SB-Packer/Front","Interstate 95","i95","http://www.dot35.state.pa.us/public/Districts/District6/WebCams/D6Cam005.jpg"
"173","-74.948833","40.0741","I-95 SB-Tasker/Reed","Interstate 95","i95","http://www.dot35.state.pa.us/public/Districts/District6/WebCams/D6Cam006.jpg"
"174","-74.948833","40.0741","I-95 Wash/Columbus","Interstate 95","i95","http://www.dot35.state.pa.us/public/Districts/District6/WebCams/D6Cam007.jpg"
"175","-75.3221","40.0753","I-476 SB SCHKL R BRDG","Interstate 476","i476","http://www.dot35.state.pa.us/public/Districts/District6/WebCams/D6Cam021.jpg"
"176","-75.361483","40.0762","I-76 EB Weadley Rd","Interstate 76","i76","http://www.dot35.state.pa.us/public/Districts/District6/WebCams/D6Cam094.jpg"
"177","-75.405633","40.0785","US 202 Ramp L @ Ramp O","U.S. 202","us202","http://www.dot35.state.pa.us/public/Districts/District6/WebCams/D6Cam071.jpg"
"178","-75.378117","40.079","I-76 EB W of Croton","Interstate 76","i76","http://www.dot35.state.pa.us/public/Districts/District6/WebCams/D6Cam093.jpg"
"179","-75.407017","40.0802","US 202 SB US 202/PA 422","U.S. 202","us202","http://www.dot35.state.pa.us/public/Districts/District6/WebCams/D6Cam043.jpg"
"180","-75.398317","40.0803","US 202 Ramp L @ Cont BL","U.S. 202","us202","http://www.dot35.state.pa.us/public/Districts/District6/WebCams/D6Cam072.jpg"
"181","-74.965667","40.0809","US 63 WB @ Millbrk Rd","Pennsylvania 63","pa63","http://www.dot35.state.pa.us/public/Districts/District6/WebCams/D6Cam092.jpg"
"182","-75.391483","40.0814","US 202 Ramp L @ 76","U.S. 202","us202","http://www.dot35.state.pa.us/public/Districts/District6/WebCams/D6Cam073.jpg"
"183","-75.3111","40.0831","I-476 NB N of Ridge PK","Interstate 476","i476","http://www.dot35.state.pa.us/public/Districts/District6/WebCams/D6Cam024.jpg"
"184","-75.3111","40.0831","I-476 NB Access Rd BRDG","Interstate 476","i476","http://www.dot35.state.pa.us/public/Districts/District6/WebCams/D6Cam022.jpg"
"185","-75.39735","40.0831","I-76 EB Ramp to US 202/422","Interstate 76","i76","http://www.dot35.state.pa.us/public/Districts/District6/WebCams/D6Cam074.jpg"
"186","-75.39425","40.0832","US 202 NB US 202/I/76","U.S. 202","us202","http://www.dot35.state.pa.us/public/Districts/District6/WebCams/D6Cam042.jpg"
"187","-75.38345","40.0877","US 202 @ Allendale","U.S. 202","us202","http://www.dot35.state.pa.us/public/Districts/District6/WebCams/D6Cam041.jpg"
"188","-75.16595","40.0879","PA 309 SB @ Easton Rd","Pennsylvania 309","pa309","http://www.dot35.state.pa.us/public/Districts/District6/WebCams/D6Cam118.jpg"
"189","-75.4152","40.0903","US 422 EB-422 @ PA Turnpike","U.S. 422","us422","http://www.dot35.state.pa.us/public/Districts/District6/WebCams/D6Cam082.jpg"
"190","-75.36775","40.0933","US 202 @ Town CTR RD","U.S. 202","us202","http://www.dot35.state.pa.us/public/Districts/District6/WebCams/D6Cam040.jpg"
"191","-75.170761","40.0936","PA 309 NB @ Waverly Rd","Pennsylvania 309","pa309","http://www.dot35.state.pa.us/public/Districts/District6/WebCams/D6Cam179.jpg"
"192","-75.30485","40.0946","I-476 SB S of Ridge PK","Interstate 476","i476","http://www.dot35.state.pa.us/public/Districts/District6/WebCams/D6Cam023.jpg"
"193","-75.29165","40.1002","I-476 SB @ Ridge Pike","Interstate 476","i476","http://www.dot35.state.pa.us/public/Districts/District6/WebCams/D6Cam208.jpg"
"194","-75.18587","40.1003","PA 309 NB S of Papermill Rd","Pennsylvania 309","pa309","http://www.dot35.state.pa.us/public/Districts/District6/WebCams/D6Cam180.jpg"
"195","-75.4185","40.1014","US 422 WB-422@PA 23","U.S. 422","us422","http://www.dot35.state.pa.us/public/Districts/District6/WebCams/D6Cam083.jpg"
"196","-75.194405","40.102","PA 309 SB @ Papermill Rd","Pennsylvania 309","pa309","http://www.dot35.state.pa.us/public/Districts/District6/WebCams/D6Cam181.jpg"
"197","-75.288651","40.1068","I-476 Ramp from Germantown Pike","Interstate 476","i476","http://www.dot35.state.pa.us/public/Districts/District6/WebCams/D6Cam209.jpg"
"198","-75.420017","40.113","US 422 WB-422 @ PA 363","U.S. 422","us422","http://www.dot35.state.pa.us/public/Districts/District6/WebCams/D6Cam084.jpg"
"199","-75.201346","40.1132","RT309 SB @ Church Rd","Pennsylvania 309","pa309","http://www.dot35.state.pa.us/public/Districts/District6/WebCams/D6Cam182.jpg"
"200","-75.454883","40.1142","US 422 EB- 422 PWLNGS RD","U.S. 422","us422","http://www.dot35.state.pa.us/public/Districts/District6/WebCams/D6Cam086.jpg"
"201","-75.4311","40.1159","US 422 WB-422 W of PA 363","U.S. 422","us422","http://www.dot35.state.pa.us/public/Districts/District6/WebCams/D6Cam085.jpg"
"202","-75.204989","40.1235","RT309 SB S of Turnpike","Pennsylvania 309","pa309","http://www.dot35.state.pa.us/public/Districts/District6/WebCams/D6Cam183.jpg"
"203","-75.451083","40.1243","US 422 EB- 422 W of Perk","U.S. 422","us422","http://www.dot35.state.pa.us/public/Districts/District6/WebCams/D6Cam087.jpg"
"204","-75.201183","40.1334","PA 309 NB @PA Turnpike","Pennsylvania 309","pa309","http://www.dot.state.pa.us/penndot/districts/district6.nsf/TCamera119?openpage"
"205","-75.201183","40.1334","RT309 NB N of Turnpike","Pennsylvania 309","pa309","http://www.dot35.state.pa.us/public/Districts/District6/WebCams/D6Cam184.jpg"
"206","-75.446767","40.1348","US 422 WB-422 Egypt Rd","U.S. 422","us422","http://www.dot35.state.pa.us/public/Districts/District6/WebCams/D6Cam088.jpg"
"207","-75.46035","40.1478","US 422 EB-422 Indn Head","U.S. 422","us422","http://www.dot35.state.pa.us/public/Districts/District6/WebCams/D6Cam089.jpg"
"208","-75.4599","40.1505","US 422 WB-422 Cider Mil","U.S. 422","us422","http://www.dot35.state.pa.us/public/Districts/District6/WebCams/D6Cam090.jpg"
"209","-75.47","40.1568","US 422 WB-422 E of PA 29","U.S. 422","us422","http://www.dot35.state.pa.us/public/Districts/District6/WebCams/D6Cam091.jpg"
"210","-75.20125","40.1612","PA 309 NB @Susquehanna","Pennsylvania 309","pa309","http://www.dot35.state.pa.us/public/Districts/District6/WebCams/D6Cam120.jpg"
"211","-75.223067","40.1959","PA 309 NB @ Beth PK Mrg","Pennsylvania 309","pa309","http://www.dot35.state.pa.us/public/Districts/District6/WebCams/D6Cam121.jpg"
"212","-75.225004","40.2089","RT309 SB @ English Village","Pennsylvania 309","pa309","http://www.dot35.state.pa.us/public/Districts/District6/WebCams/D6Cam190.jpg"
"213","-75.229933","40.2184","RT309 SB N of Hartman Rd","Pennsylvania 309","pa309","http://www.dot35.state.pa.us/public/Districts/District6/WebCams/D6Cam191.jpg"
"214","-75.234147","40.2257","RT309 NB @ Stump Rd","Pennsylvania 309","pa309","http://www.dot35.state.pa.us/public/Districts/District6/WebCams/D6Cam192.jpg"
"215","-75.240034","40.2355","RT309 NB @ US 202","Pennsylvania 309","pa309","http://www.dot35.state.pa.us/public/Districts/District6/WebCams/D6Cam193.jpg"
"216","-75.242627","40.2397","RT309 SB @ North Wales Rd","Pennsylvania 309","pa309","http://www.dot35.state.pa.us/public/Districts/District6/WebCams/D6Cam194.jpg"
"217","-75.243835","40.2477","RT309 NB @ Five Points","Pennsylvania 309","pa309","http://www.dot35.state.pa.us/public/Districts/District6/WebCams/D6Cam195.jpg"